GpsCycle,GpsWeek,GpsTow,Time::TimeStartup,Time::GpsTow,Time::GpsWeek,Time::TimeUtc::year,Time::TimeUtc::month,Time::TimeUtc::day,Time::TimeUtc::hour,Time::TimeUtc::min,Time::TimeUtc::sec,Time::TimeUtc::ms,Time::TimeStatus::timeOk,Time::TimeStatus::dateOk,Time::TimeStatus::utcTimeValid,GNSS1::UTC::year,GNSS1::UTC::month,GNSS1::UTC::day,GNSS1::UTC::hour,GNSS1::UTC::min,GNSS1::UTC::sec,GNSS1::UTC::ms,GNSS1::Tow,GNSS1::Week,GNSS1::NumSats,GNSS1::Fix,GNSS1::PosLla::latitude,GNSS1::PosLla::longitude,GNSS1::PosLla::altitude,GNSS1::PosEcef::X,GNSS1::PosEcef::Y,GNSS1::PosEcef::Z,GNSS1::VelNed::N,GNSS1::VelNed::E,GNSS1::VelNed::D,GNSS1::VelEcef::X,GNSS1::VelEcef::Y,GNSS1::VelEcef::Z,GNSS1::PosU::N,GNSS1::PosU::E,GNSS1::PosU::D,GNSS1::VelU,GNSS1::TimeU,GNSS1::TimeInfo::Status::timeOk,GNSS1::TimeInfo::Status::dateOk,GNSS1::TimeInfo::Status::utcTimeValid,GNSS1::TimeInfo::LeapSeconds,GNSS1::gDOP,GNSS1::pDOP,GNSS1::tDOP,GNSS1::vDOP,GNSS1::hDOP,GNSS1::nDOP,GNSS1::eDOP,Att::YawPitchRoll::Y,Att::YawPitchRoll::P,Att::YawPitchRoll::R,Att::Quaternion::w,Att::Quaternion::x,Att::Quaternion::y,Att::Quaternion::z,Att::YprU::Y,Att::YprU::P,Att::YprU::R,INS::InsStatus::Mode,INS::InsStatus::GpsFix,INS::InsStatus::Error::IMU,INS::InsStatus::Error::MagPres,INS::InsStatus::Error::GNSS,INS::InsStatus::GpsHeadingIns,INS::InsStatus::GpsCompass,INS::PosLla::latitude,INS::PosLla::longitude,INS::PosLla::altitude,INS::PosEcef::X,INS::PosEcef::Y,INS::PosEcef::Z,INS::VelBody::X,INS::VelBody::Y,INS::VelBody::Z,INS::VelNed::N,INS::VelNed::E,INS::VelNed::D,INS::VelEcef::X,INS::VelEcef::Y,INS::VelEcef::Z,INS::MagEcef::X,INS::MagEcef::Y,INS::MagEcef::Z,INS::AccelEcef::X,INS::AccelEcef::Y,INS::AccelEcef::Z,INS::LinearAccelEcef::,INS::LinearAccelEcef::Y,INS::LinearAccelEcef::Z,INS::PosU,INS::VelU,GNSS2::UTC::year,GNSS2::UTC::month,GNSS2::UTC::day,GNSS2::UTC::hour,GNSS2::UTC::min,GNSS2::UTC::sec,GNSS2::UTC::ms,GNSS2::Tow,GNSS2::Week,GNSS2::NumSats,GNSS2::Fix,GNSS2::PosLla::latitude,GNSS2::PosLla::longitude,GNSS2::PosLla::altitude,GNSS2::PosEcef::X,GNSS2::PosEcef::Y,GNSS2::PosEcef::Z,GNSS2::VelNed::N,GNSS2::VelNed::E,GNSS2::VelNed::D,GNSS2::VelEcef::X,GNSS2::VelEcef::Y,GNSS2::VelEcef::Z,GNSS2::PosU::N,GNSS2::PosU::E,GNSS2::PosU::D,GNSS2::VelU,GNSS2::TimeU,GNSS2::TimeInfo::Status::timeOk,GNSS2::TimeInfo::Status::dateOk,GNSS2::TimeInfo::Status::utcTimeValid,GNSS2::TimeInfo::LeapSeconds,GNSS2::gDOP,GNSS2::pDOP,GNSS2::tDOP,GNSS2::vDOP,GNSS2::hDOP,GNSS2::nDOP,GNSS2::eDOP
2,117,201354.25578,383742505000,201354255779505,2165,21,7,6,7,55,36,256,1,1,1,21,7,6,7,55,36,199,201354199829578,2165,13,4,48.739933470999993,8.9213974709999988,534.93600000000004,4163583.9358999999,653592.98759999999,4771937.3366999999,0.017000001,-0.0060000001,-0.037,0.01241126,-0.0041251774,0.039024912,1.6257498,1.2024833,3.3373289,0.25920001,9.9999997e-10,1,1,1,18,1.8499999,1.5899999,0.94,1.3399999,0.84999996,0.68000001,0.51999998,-76.814896,88.291878,18.631254,-0.4848386,-0.51800698,-0.46641758,0.52825654,20.00116,0.021383908,0.021438273,0,1,0,0,0,0,0,0,0,0,0,0,0,0,0,0,0,0,0,0,0,0,-1.4712347,-0.26414567,-0.91555333,6.3882542,1.0106541,7.3827591,-0.0017155367,0.0074940557,0.0096954089,0,0,21,7,6,7,55,36,0,201354000487578,2165,12,4,48.739936513171322,8.9214000956386084,534.1912879133597,4163583.1699999999,653593.06000000006,4771937,-0.0080000004,-0.0070000002,-0.024,0.02,0,0.0099999998,1.6747847,1.3719282,3.7571421,0.35040003,5.0999997e-08,1,1,1,18,2.05,1.75,1.05,1.4699999,0.94999999,0.79999995,0.51999998
2,117,201354.455779,383942505000,201354455779314,2165,21,7,6,7,55,36,456,1,1,1,21,7,6,7,55,36,399,201354399829600,2165,13,4,48.739933482999994,8.9213974829999998,534.94369999999992,4163583.9397,653592.98970000003,4771937.3433999997,0.017999999,0.015,-0.035999998,0.0077604651,0.016401917,0.038932659,1.625806,1.2025626,3.3378189,0.25680003,9.9999997e-10,1,1,1,18,1.8499999,1.5899999,0.94,1.3399999,0.84999996,0.68000001,0.51999998,-76.807152,88.28936,18.585075,-0.48509532,-0.51777291,-0.46665254,0.52804267,19.893528,0.021452824,0.021590622,0,1,0,0,0,0,1,0,0,0,0,0,0,0,0,0,0,0,0,0,0,0,-1.4834146,-0.2553333,-0.90464646,6.388391,0.99628824,7.3697734,-0.0015789298,-0.0068717911,-0.0032901578,0,0,21,7,6,7,55,36,200,201354200487668,2165,12,4,48.739936513171322,8.9214000956386084,534.1912879133597,4163583.1699999999,653593.06000000006,4771937,0.0040000002,-0.0040000002,0.003,0,0,0,1.6741993,1.371361,3.7556634,0.28480002,5.0999997e-08,1,1,1,18,2.05,1.75,1.05,1.4699999,0.94999999,0.79999995,0.51999998
2,117,201354.655779,384142505000,201354655779362,2165,21,7,6,7,55,36,656,1,1,1,21,7,6,7,55,36,599,201354599829622,2165,13,4,48.739933473000001,8.9213975730000001,534.94640000000004,4163583.9419999998,653592.99249999993,4771937.3447000002,0,0.0070000002,-0.017999999,0.010641438,0.0087561989,0.013531029,1.6262094,1.2030076,3.3384912,0.23040001,9.9999997e-10,1,1,1,18,1.8499999,1.5899999,0.94,1.3399999,0.84999996,0.68000001,0.51999998,-76.756851,88.295547,18.631683,-0.48508531,-0.51778334,-0.46669737,0.5280022,19.906603,0.021580039,0.021640358,0,1,0,0,0,0,1,0,0,0,0,0,0,0,0,0,0,0,0,0,0,0,-0.82296324,-0.13507923,-0.48899907,6.3870826,1.0002962,7.3776503,-0.0028871256,-0.0028638055,0.0045867306,0,0,21,7,6,7,55,36,400,201354400487759,2165,12,4,48.739936569463936,8.9214002510233676,534.18579563312232,4163583.1600000001,653593.07000000007,4771937,0.0070000002,0.0020000001,-0.034000002,0.02,0,0.029999999,1.6738122,1.3714164,3.7539411,0.41760001,5.0999997e-08,1,1,1,18,2.05,1.75,1.05,1.4699999,0.94999999,0.79999995,0.51999998
2,117,201354.855779,384342505000,201354855779409,2165,21,7,6,7,55,36,856,1,1,1,21,7,6,7,55,36,799,201354799829644,2165,13,4,48.739933456999999,8.9213975569999988,534.94849999999997,4163583.9443999999,653592.99439999997,4771937.3450000007,0.0049999999,0.0020000001,-0.026000001,0.012915684,0.0040519754,0.022842212,1.627009,1.2037228,3.3401134,0.27120003,9.9999997e-10,1,1,1,18,1.8499999,1.5899999,0.94,1.3399999,0.84999996,0.68000001,0.51999998,-76.805542,88.288445,18.581007,-0.48512706,-0.51774579,-0.46667239,0.52802271,19.91926,0.021564094,0.021785624,0,1,0,0,0,0,1,0,0,0,0,0,0,0,0,0,0,0,0,0,0,0,-0.81746644,-0.13781992,-0.49650246,6.3931365,1.0041375,7.3731017,0.0031666609,0.00097737915,3.7922873e-05,0,0,21,7,6,7,55,36,600,201354600487850,2165,12,4,48.739936576940671,8.9214002721059273,534.17176339868456,4163583.1499999999,653593.07000000007,4771936.9900000002,0.0020000001,0.012,-0.024,0.0099999998,0.0099999998,0.02,1.6733234,1.3708857,3.7525444,0.39680001,5.0999997e-08,1,1,1,18,2.05,1.75,1.05,1.4699999,0.94999999,0.79999995,0.51999998
2,117,201355.055785,384542505000,201355055785418,2165,21,7,6,7,55,37,56,1,1,1,21,7,6,7,55,37,0,201354999829666,2165,13,4,48.739933442000002,8.9213976420000005,534.95400000000006,4163583.949,653592.99639999995,4771937.348100001,-0.0020000001,0.0020000001,-0.0070000002,0.0057355985,0.0029248572,0.0039431117,1.6278884,1.2044423,3.3421502,0.19920002,9.9999997e-10,1,1,1,18,1.8499999,1.5899999,0.94,1.3399999,0.84999996,0.68000001,0.51999998,-76.736816,88.292229,18.647812,-0.48512191,-0.51776004,-0.46669641,0.52799219,19.932285,0.021649245,0.021940712,0,1,0,0,0,0,1,0,0,0,0,0,0,0,0,0,0,0,0,0,0,0,-0.82055479,-0.13465041,-0.49289179,6.3903809,1.0039636,7.3702168,0.00041105261,0.0008034925,-0.0028468184,0,0,21,7,6,7,55,36,800,201354800487940,2165,12,4,48.739936584417407,8.921400293188487,534.15773116331547,4163583.1400000001,653593.07000000007,4771936.9800000004,-0.041999999,-0.011,0.02,0.02,-0.0099999998,-0.039999999,1.6729012,1.3704113,3.751267,0.35520002,5.0999997e-08,1,1,1,18,2.05,1.75,1.05,1.4699999,0.94999999,0.79999995,0.51999998
2,117,201355.255785,384742505000,201355255785465,2165,21,7,6,7,55,37,256,1,1,1,21,7,6,7,55,37,199,201355199829687,2165,13,4,48.739933418,8.9213976180000003,534.95550000000003,4163583.9517000001,653592.99890000001,4771937.3475000001,-0.003,0.012,-0.017999999,0.012093931,0.01404544,0.011552596,1.6285322,1.2050457,3.3440988,0.24000001,9.9999997e-10,1,1,1,18,1.8499999,1.5899999,0.94,1.3399999,0.84999996,0.68000001,0.51999998,-76.723808,88.289474,18.659706,-0.48514268,-0.51774913,-0.46668509,0.52799386,19.94418,0.021649832,0.021898668,0,1,0,0,0,0,1,0,0,0,0,0,0,0,0,0,0,0,0,0,0,0,-0.81432748,-0.14218247,-0.4924261,6.3879528,1.013431,7.3667517,-0.0020172128,0.010270871,-0.0063120252,0,0,21,7,6,7,55,37,0,201355000488031,2165,12,4,48.739936591894143,8.921400314271045,534.14369892701507,4163583.1299999999,653593.07000000007,4771936.9699999997,-0.023,-0.017999999,0.048999999,-0.0099999998,-0.02,-0.049999997,1.6725075,1.369952,3.7500467,0.40640002,5.0999997e-08,1,1,1,18,2.05,1.75,1.05,1.4699999,0.94999999,0.79999995,0.51999998
2,117,201355.455785,384942505000,201355455785275,2165,21,7,6,7,55,37,456,1,1,1,21,7,6,7,55,37,399,201355399829709,2165,13,4,48.739933411000003,8.9213977109999991,534.95400000000006,4163583.9510000004,653593.00060000003,4771937.3458000002,0.011,0.003,0.018999999,-0.021012656,-0.00026179454,-0.0070284964,1.6287439,1.2052977,3.3458352,0.24240002,9.9999997e-10,1,1,1,18,1.8499999,1.5899999,0.94,1.3399999,0.84999996,0.68000001,0.51999998,-76.832726,88.282166,18.549393,-0.48517933,-0.51770258,-0.46666044,0.52802771,19.956783,0.021629456,0.021918546,0,1,0,0,0,0,1,0,0,0,0,0,0,0,0,0,0,0,0,0,0,0,-0.80526501,-0.14335416,-0.47774607,6.3819795,1.0003847,7.3756151,-0.0079903528,-0.0027753897,0.0025515272,0,0,21,7,6,7,55,37,200,201355200488122,2165,12,4,48.73993652211383,8.9214004485732463,534.13720440119505,4163583.1299999999,653593.07999999996,4771936.96,-0.025,-0.028000001,0.106,-0.049999997,-0.039999999,-0.099999994,1.6721745,1.369543,3.7488806,0.4032,5.0999997e-08,1,1,1,18,2.05,1.75,1.05,1.4699999,0.94999999,0.79999995,0.51999998
2,117,201355.655784,385142504000,201355655784369,2165,21,7,6,7,55,37,656,1,1,1,21,7,6,7,55,37,599,201355599829731,2165,13,4,48.739933422999997,8.9213977230000001,534.95799999999997,4163583.9522000002,653593.00360000005,4771937.3497000001,0.011,0.016000001,-0.037999999,0.014106791,0.0184104,0.035819765,1.6289883,1.2055601,3.3471904,0.26400003,9.9999997e-10,1,1,1,18,1.8499999,1.5899999,0.94,1.3399999,0.84999996,0.68000001,0.51999998,-76.720963,88.291992,18.651789,-0.48517784,-0.51771206,-0.46674749,0.52794272,19.969444,0.021676892,0.02178612,0,1,0,0,0,0,1,0,0,0,0,0,0,0,0,0,0,0,0,0,0,0,-0.81130201,-0.14220285,-0.49030989,6.3901892,1.0051113,7.368721,0.00021898875,0.0019512242,-0.0043423967,0,0,21,7,6,7,55,37,400,201355400488212,2165,12,4,48.739936540072783,8.9214003353536047,534.12214945349842,4163583.1200000001,653593.07000000007,4771936.9500000002,-0.0060000001,-0.022,0.071999997,-0.039999999,-0.029999999,-0.059999999,1.6724085,1.3698326,3.747828,0.39680001,5.0999997e-08,1,1,1,18,2.05,1.75,1.05,1.4699999,0.94999999,0.79999995,0.51999998
2,117,201355.855785,385342505000,201355855785370,2165,21,7,6,7,55,37,856,1,1,1,21,7,6,7,55,37,799,201355799829753,2165,13,4,48.739933418999996,8.9213977189999998,534.96119999999996,4163583.9542,653593.00679999997,4771937.3518000003,-0.0060000001,0.0070000002,-0.056000002,0.039854202,0.013341973,0.038139671,1.6292624,1.2058238,3.3487351,0.26880002,9.9999997e-10,1,1,1,18,1.8499999,1.5899999,0.94,1.3399999,0.84999996,0.68000001,0.51999998,-76.597618,88.297508,18.738388,-0.48532569,-0.51759291,-0.46693602,0.52775693,19.982298,0.021626612,0.0217005,0,1,0,0,0,0,1,0,0,0,0,0,0,0,0,0,0,0,0,0,0,0,-0.81212533,-0.14062133,-0.48264855,6.3877044,1.002597,7.3672862,-0.0022655139,-0.00056325988,-0.0057773264,0,0,21,7,6,7,55,37,600,201355600488303,2165,12,4,48.739936488251438,8.9214003564361626,534.10059997905046,4163583.1099999999,653593.07000000007,4771936.9299999997,-0.026000001,-0.0049999999,-0.044,0.049999997,0,0.02,1.6721253,1.3694524,3.746835,0.32640001,5.0999997e-08,1,1,1,18,2.05,1.75,1.05,1.4699999,0.94999999,0.79999995,0.51999998
2,117,201356.055792,385542505000,201356055791616,2165,21,7,6,7,55,38,56,1,1,1,21,7,6,7,55,38,0,201355999829775,2165,13,4,48.739933418999996,8.9213977189999998,534.9692,4163583.9591999999,653593.00879999995,4771937.3578000003,0.0080000004,0,0.0020000001,-0.0072440365,-0.0011371572,0.0037723756,1.6294904,1.2058778,3.3503881,0.17760001,9.9999997e-10,1,1,1,18,1.8499999,1.5899999,0.94,1.3399999,0.84999996,0.68000001,0.51999998,-76.552361,88.289017,18.707169,-0.48572156,-0.51724952,-0.46723685,0.52746314,19.995022,0.021712882,0.02171897,0,1,0,0,0,0,1,0,0,0,0,0,0,0,0,0,0,0,0,0,0,0,-0.8259688,-0.13077044,-0.49387172,6.3843813,0.988864,7.3700004,-0.0055881916,-0.014296128,-0.0030629484,0,0,21,7,6,7,55,37,800,201355800488394,2165,12,4,48.739936421476607,8.9214003353536047,534.1071149725467,4163583.1200000001,653593.07000000007,4771936.9299999997,-0.024,-0.017000001,0.046999998,-0.0099999998,-0.02,-0.049999997,1.6718985,1.369122,3.7459211,0.39840004,5.0999997e-08,1,1,1,18,2.05,1.75,1.05,1.4699999,0.94999999,0.79999995,0.51999998
2,117,201356.255792,385742505000,201356255791664,2165,21,7,6,7,55,38,256,1,1,1,21,7,6,7,55,38,199,201356199829797,2165,13,4,48.739933422999997,8.9213978229999995,534.96289999999999,4163583.9545,653593.00930000003,4771937.3534000004,0.003,0.003,-0.0089999996,0.0031703701,0.0035344178,0.0087439483,1.6297317,1.2059422,3.3520927,0.23520002,9.9999997e-10,1,1,1,18,1.8499999,1.5899999,0.94,1.3399999,0.84999996,0.68000001,0.51999998,-76.608673,88.280228,18.604527,-0.48597196,-0.51701742,-0.46740776,0.52730858,20.005779,0.021636715,0.021798227,0,1,0,0,0,0,1,0,0,0,0,0,0,0,0,0,0,0,0,0,0,0,-0.82160723,-0.13876754,-0.48823458,6.3877058,1.0016701,7.3648572,-0.0022637988,-0.0014900616,-0.0082065137,0,0,21,7,6,7,55,38,0,201356000488484,2165,12,4,48.739936421476607,8.9214003353536047,534.1071149725467,4163583.1200000001,653593.07000000007,4771936.9299999997,-0.025,-0.0089999996,0.041000001,-0.0099999998,-0.0099999998,-0.049999997,1.6717275,1.3695867,3.7472329,0.39680001,5.0999997e-08,1,1,1,18,2.05,1.75,1.05,1.4699999,0.94999999,0.79999995,0.51999998
2,117,201356.455791,385942505000,201356455791473,2165,21,7,6,7,55,38,456,1,1,1,21,7,6,7,55,38,399,201356399829819,2165,13,4,48.739933456999999,8.9213977569999994,534.96669999999995,4163583.9537,653593.01269999996,4771937.3587000007,0.029999999,0.021,-0.0089999996,-0.019672055,0.018169081,0.026549853,1.6300066,1.2059952,3.3538592,0.19920002,9.9999997e-10,1,1,1,18,1.8499999,1.5899999,0.94,1.3399999,0.84999996,0.68000001,0.51999998,-76.406616,88.287643,18.673815,-0.48654786,-0.51650995,-0.46804261,0.52671123,19.897177,0.021780487,0.022165133,0,1,0,0,0,0,1,0,0,0,0,0,0,0,0,0,0,0,0,0,0,0,-0.8213284,-0.14051834,-0.4872067,6.3962221,1.0009358,7.3736911,0.0062522925,-0.0022242933,0.00062709092,0,0,21,7,6,7,55,38,200,201356200488575,2165,12,4,48.739936362178518,8.9214003353536047,534.09959773346782,4163583.1200000001,653593.07000000007,4771936.9199999999,-0.012,-0.012,0.046,-0.02,-0.0099999998,-0.039999999,1.6709125,1.3704224,3.7487254,0.40000001,5.0999997e-08,1,1,1,18,2.05,1.75,1.05,1.4699999,0.94999999,0.79999995,0.51999998
2,117,201356.655792,386142505000,201356655791521,2165,21,7,6,7,55,38,656,1,1,1,21,7,6,7,55,38,599,201356599829841,2165,13,4,48.739933473000001,8.9213977730000007,534.96169999999995,4163583.9487000001,653593.0148,4771937.3561000004,-0.0099999998,-0.001,0.017000001,-0.0034941188,-0.0015607474,-0.019374086,1.6306862,1.2063224,3.3556132,0.26160002,9.9999997e-10,1,1,1,18,1.8499999,1.5899999,0.94,1.3399999,0.84999996,0.68000001,0.51999998,-76.320015,88.291306,18.688013,-0.48686135,-0.51622808,-0.46838826,0.52639049,19.908583,0.02157928,0.021792136,0,1,0,0,0,0,1,0,0,0,0,0,0,0,0,0,0,0,0,0,0,0,-0.82231468,-0.13536082,-0.49204409,6.3889155,1.0065988,7.376852,-0.0010539792,0.0034387426,0.0037885101,0,0,21,7,6,7,55,38,400,201356400488666,2165,12,4,48.739936421476607,8.9214003353536047,534.1071149725467,4163583.1200000001,653593.07000000007,4771936.9299999997,0,-0.021,0.0099999998,0,-0.02,-0.0099999998,1.6701462,1.371284,3.7503486,0.29440004,5.0999997e-08,1,1,1,18,2.05,1.75,1.05,1.4699999,0.94999999,0.79999995,0.51999998
2,117,201356.855792,386342505000,201356855791569,2165,21,7,6,7,55,38,856,1,1,1,21,7,6,7,55,38,799,201356799829863,2165,13,4,48.739933469999997,8.9213978699999998,534.96440000000007,4163583.9505000003,653593.01620000007,4771937.3579000002,0.0070000002,0.001,-0.013,0.0031160084,0.0015013921,0.014388757,1.6313672,1.206661,3.3575041,0.25200003,9.9999997e-10,1,1,1,18,1.8499999,1.5899999,0.94,1.3399999,0.84999996,0.68000001,0.51999998,-76.170082,88.305107,18.777342,-0.48707539,-0.51603562,-0.4687275,0.5260793,19.921177,0.021739682,0.022055788,0,1,0,0,0,0,1,0,0,0,0,0,0,0,0,0,0,0,0,0,0,0,-0.81889492,-0.13777129,-0.49835485,6.3976045,1.0046575,7.3738551,0.0076346807,0.0014973663,0.00079140346,0,0,21,7,6,7,55,38,600,201356600488756,2165,12,4,48.739936362178518,8.9214003353536047,534.09959773346782,4163583.1200000001,653593.07000000007,4771936.9199999999,0.028000001,0.0049999999,-0.093999997,0.039999999,0.0099999998,0.089999996,1.6698872,1.3713121,3.7496874,0.39360002,5.0999997e-08,1,1,1,18,2.05,1.75,1.05,1.4699999,0.94999999,0.79999995,0.51999998
2,117,201357.055797,386542504000,201357055796862,2165,21,7,6,7,55,39,56,1,1,1,21,7,6,7,55,39,0,201356999829885,2165,13,4,48.739933475999997,8.9213978760000003,534.96840000000009,4163583.9525000001,653593.01760000002,4771937.3614000008,-0.0040000002,-0.0049999999,-0.018999999,0.016124407,-0.002530047,0.011644842,1.6320777,1.2070098,3.3594122,0.24960001,9.9999997e-10,1,1,1,18,1.8499999,1.5899999,0.94,1.3399999,0.84999996,0.68000001,0.51999998,-76.049118,88.307419,18.844164,-0.48731765,-0.51583171,-0.46897736,0.52583218,19.933437,0.021717489,0.022021001,0,1,0,0,0,0,1,0,0,0,0,0,0,0,0,0,0,0,0,0,0,0,-0.82335401,-0.12900683,-0.49457735,6.3890233,0.99003607,7.3682823,-0.00094673363,-0.013124061,-0.0047813202,0,0,21,7,6,7,55,38,800,201356800488847,2165,12,4,48.739936421476607,8.9214003353536047,534.1071149725467,4163583.1200000001,653593.07000000007,4771936.9299999997,0.0049999999,0.0080000004,-0.023,0.0099999998,0.0099999998,0.02,1.6696453,1.3710366,3.7494798,0.39200002,5.0999997e-08,1,1,1,18,2.05,1.75,1.05,1.4699999,0.94999999,0.79999995,0.51999998
2,117,201357.255798,386742505000,201357255797863,2165,21,7,6,7,55,39,256,1,1,1,21,7,6,7,55,39,199,201357199829907,2165,13,4,48.739933479000001,8.9213978790000006,534.97940000000006,4163583.9591999999,653593.02000000002,4771937.3700000001,0.0040000002,0.003,-0.028000001,0.014806234,0.0053609973,0.023686182,1.6327784,1.2073169,3.3610935,0.27120003,9.9999997e-10,1,1,1,18,1.8499999,1.5899999,0.94,1.3399999,0.84999996,0.68000001,0.51999998,-75.998604,88.306496,18.87118,-0.48743233,-0.51573735,-0.46907586,0.52573055,19.945726,0.02177918,0.022218833,0,1,0,0,0,0,1,0,0,0,0,0,0,0,0,0,0,0,0,0,0,0,-0.81150627,-0.14037558,-0.47804242,6.392065,1.0053862,7.3799777,0.0020953296,0.0022260097,0.0069139712,0,0,21,7,6,7,55,39,0,201357000488938,2165,12,4,48.739936354701783,8.921400314271045,534.1136299688369,4163583.1299999999,653593.07000000007,4771936.9299999997,-0.016000001,-0.02,-0.023,0.029999999,-0.02,0.0099999998,1.6694324,1.3707013,3.7488513,0.2608,5.0999997e-08,1,1,1,18,2.05,1.75,1.05,1.4699999,0.94999999,0.79999995,0.51999998
2,117,201357.455798,386942505000,201357455797672,2165,21,7,6,7,55,39,456,1,1,1,21,7,6,7,55,39,399,201357399829929,2165,13,4,48.739933487999998,8.9213978879999996,534.98469999999998,4163583.9613999999,653593.02320000005,4771937.3745999997,0.0070000002,0.011,-0.035,0.015898207,0.013630383,0.030926682,1.6331511,1.2073648,3.3626068,0.27120003,9.9999997e-10,1,1,1,18,1.8499999,1.5899999,0.94,1.3399999,0.84999996,0.68000001,0.51999998,-76.066574,88.294746,18.743427,-0.48776039,-0.51543534,-0.46928999,0.52553147,19.958168,0.021850796,0.022140069,0,1,0,0,0,0,1,0,0,0,0,0,0,0,0,0,0,0,0,0,0,0,-0.79902744,-0.14056478,-0.47937638,6.388422,1.0168484,7.3655949,-0.0015481985,0.013688329,-0.007468896,0,0,21,7,6,7,55,39,200,201357200489028,2165,12,4,48.739936354701783,8.921400314271045,534.1136299688369,4163583.1299999999,653593.07000000007,4771936.9299999997,0.0099999998,-0.001,-0.039000001,0.02,0,0.039999999,1.6692917,1.3712001,3.7505398,0.38720003,5.0999997e-08,1,1,1,18,2.05,1.75,1.05,1.4699999,0.94999999,0.79999995,0.51999998
2,117,201357.655798,387142505000,201357655797720,2165,21,7,6,7,55,39,656,1,1,1,21,7,6,7,55,39,599,201357599829951,2165,13,4,48.739933487999998,8.9213979879999989,534.98509999999999,4163583.9613999999,653593.02509999997,4771937.3748000003,-0.003,-0.0060000001,-0.003,0.0051128631,-0.0052708681,0.00027673785,1.6335844,1.2075925,3.3639786,0.18960002,9.9999997e-10,1,1,1,18,1.8499999,1.5899999,0.94,1.3399999,0.84999996,0.68000001,0.51999998,-76.008308,88.292908,18.742296,-0.48804,-0.5151875,-0.46954995,0.52528244,19.970585,0.021866439,0.022052029,0,1,0,0,0,0,1,0,0,0,0,0,0,0,0,0,0,0,0,0,0,0,-0.81752145,-0.13516623,-0.48330951,6.3952026,1.003522,7.3717675,0.0052331178,0.00036187653,-0.0012963,0,0,21,7,6,7,55,39,400,201357400489119,2165,12,4,48.739936347225047,8.921400293188487,534.12766220420599,4163583.1400000001,653593.07000000007,4771936.9400000004,-0.0049999999,-0.011,-0.041999999,0.029999999,-0.0099999998,0.029999999,1.6691022,1.3721002,3.7521219,0.34560001,5.0999997e-08,1,1,1,18,2.05,1.75,1.05,1.4699999,0.94999999,0.79999995,0.51999998
2,117,201357.855797,387342504000,201357855796814,2165,21,7,6,7,55,39,856,1,1,1,21,7,6,7,55,39,799,201357799829973,2165,13,4,48.739933498999996,8.9213979989999999,534.98840000000007,4163583.9625999997,653593.02540000004,4771937.3782000002,0.0089999996,-0.0080000004,0.011,-0.012609527,-0.010077392,-0.0023336615,1.6339957,1.2078023,3.3653593,0.20880002,9.9999997e-10,1,1,1,18,1.8499999,1.5899999,0.94,1.3399999,0.84999996,0.68000001,0.51999998,-75.916595,88.294052,18.788044,-0.48824987,-0.51500934,-0.46975708,0.52507699,19.981596,0.021884492,0.022123313,0,1,0,0,0,0,1,0,0,0,0,0,0,0,0,0,0,0,0,0,0,0,-0.81280315,-0.13366093,-0.4821974,6.3887601,0.99904966,7.3669634,-0.0012099161,-0.0041104527,-0.0061004888,0,0,21,7,6,7,55,39,600,201357600489210,2165,12,4,48.739936406523135,8.921400293188487,534.13517944421619,4163583.1400000001,653593.07000000007,4771936.9500000002,0.001,0.0060000001,-0.037,0.02,0.0099999998,0.029999999,1.6689452,1.373022,3.7538142,0.39200002,5.0999997e-08,1,1,1,18,2.05,1.75,1.05,1.4699999,0.94999999,0.79999995,0.51999998
2,117,201358.055803,387542504000,201358055803061,2165,21,7,6,7,55,40,56,1,1,1,21,7,6,7,55,40,0,201357999829995,2165,13,4,48.739933495999999,8.9213979959999996,534.99490000000003,4163583.9668000001,653593.02769999998,4771937.3827999998,-0.022,0.0080000004,-0.025,0.031384706,0.01302469,0.0042845821,1.6344105,1.208017,3.3666265,0.22080003,9.9999997e-10,1,1,1,18,1.8499999,1.5899999,0.94,1.3399999,0.84999996,0.68000001,0.51999998,-75.818665,88.304184,18.865492,-0.48829627,-0.51496816,-0.46989864,0.52494752,19.993107,0.021721805,0.02200773,0,1,0,0,0,0,1,0,0,0,0,0,0,0,0,0,0,0,0,0,0,0,-0.81552428,-0.13372947,-0.48868415,6.3952031,1.0010246,7.3732071,0.0052333116,-0.0021355525,0.00014322461,0,0,21,7,6,7,55,39,800,201357800489300,2165,12,4,48.739936440385549,8.9214003853255672,534.17178386729211,4163583.1600000001,653593.07999999996,4771936.9800000004,-0.017999999,-0.030999999,0.050999999,-0.02,-0.029999999,-0.049999997,1.6688247,1.3739232,3.7552714,0.37920004,5.0999997e-08,1,1,1,18,2.05,1.75,1.05,1.4699999,0.94999999,0.79999995,0.51999998
2,117,201358.255804,387742505000,201358255804062,2165,21,7,6,7,55,40,256,1,1,1,21,7,6,7,55,40,199,201358199830017,2165,13,4,48.739933476999994,8.9213979769999998,534.99850000000004,4163583.9702000003,653593.03150000004,4771937.3842000002,-0.0049999999,0.011,-0.064000003,0.043703254,0.017995175,0.044812944,1.6348225,1.2082334,3.3680191,0.27360004,9.9999997e-10,1,1,1,18,1.8499999,1.5899999,0.94,1.3399999,0.84999996,0.68000001,0.51999998,-75.675323,88.311928,19.020336,-0.48821396,-0.51506442,-0.46987635,0.52494955,20.004601,0.021787239,0.022295918,0,1,0,0,0,0,1,0,0,0,0,0,0,0,0,0,0,0,0,0,0,0,-0.81882203,-0.13716443,-0.49090087,6.388535,1.0027921,7.3694968,-0.0014346389,-0.00036806121,-0.0035667582,0,0,21,7,6,7,55,40,0,201358000489391,2165,12,4,48.739936432908813,8.9214003642430075,534.18581610266119,4163583.1699999999,653593.07999999996,4771936.9900000002,-0.027000001,0.015,-0.0020000001,0.02,0.02,-0.02,1.6687446,1.3748329,3.7568049,0.2832,5.0999997e-08,1,1,1,18,2.05,1.75,1.05,1.4699999,0.94999999,0.79999995,0.51999998
2,117,201358.455804,387942505000,201358455803871,2165,21,7,6,7,55,40,456,1,1,1,21,7,6,7,55,40,399,201358399830039,2165,13,4,48.739933479999998,8.9213980799999995,534.99990000000003,4163583.9704,653593.03500000003,4771937.3854,0.003,0.0080000004,0.037,-0.02757401,0.0037694457,-0.02583535,1.6350036,1.2083272,3.368947,0.26160002,9.9999997e-10,1,1,1,18,1.8499999,1.5899999,0.94,1.3399999,0.84999996,0.68000001,0.51999998,-75.814438,88.303032,18.841698,-0.48842779,-0.51484656,-0.47002062,0.52483517,19.896112,0.021958172,0.022227375,0,1,0,0,0,0,1,0,0,0,0,0,0,0,0,0,0,0,0,0,0,0,-0.82544869,-0.1396662,-0.49386108,6.3904085,1.0065963,7.3769317,0.00043882336,0.0034362071,0.0038677608,0,0,21,7,6,7,55,40,200,201358200489482,2165,12,4,48.739936355651771,8.9214004774626474,534.19335381221026,4163583.1800000002,653593.08999999997,4771936.9900000002,-0.015,-0.021,0.046,-0.02,-0.02,-0.039999999,1.6685891,1.3746823,3.7557464,0.38400003,5.0999997e-08,1,1,1,18,2.05,1.75,1.05,1.4699999,0.94999999,0.79999995,0.51999998
2,117,201358.655804,388142505000,201358655803919,2165,21,7,6,7,55,40,656,1,1,1,21,7,6,7,55,40,599,201358599830061,2165,13,4,48.739933475999997,8.9213980760000009,534.99419999999998,4163583.9666000004,653593.03710000007,4771937.3807999995,-0.0080000004,0.0040000002,-0.017000001,0.016396213,0.006622836,0.007503483,1.6348879,1.2082031,3.3699293,0.24240002,9.9999997e-10,1,1,1,18,1.8499999,1.5899999,0.94,1.3399999,0.84999996,0.68000001,0.51999998,-75.868896,88.293365,18.774307,-0.48853263,-0.51475358,-0.47003239,0.52481818,19.908325,0.021939421,0.022329634,0,1,0,0,0,0,1,0,0,0,0,0,0,0,0,0,0,0,0,0,0,0,-0.82705736,-0.13094378,-0.4942975,6.3909802,1.0074359,7.3686666,0.0010105249,0.0042756991,-0.0043969625,0,0,21,7,6,7,55,40,400,201358400489572,2165,12,4,48.739936404467656,8.921400611764847,534.20189376547933,4163583.1800000002,653593.09999999998,4771937,-0.003,-0.0060000001,0.048999999,-0.029999999,-0.0099999998,-0.039999999,1.6684263,1.3741434,3.7546983,0.38560003,5.0999997e-08,1,1,1,18,2.05,1.75,1.05,1.4699999,0.94999999,0.79999995,0.51999998
2,117,201358.855804,388342505000,201358855803967,2165,21,7,6,7,55,40,856,1,1,1,21,7,6,7,55,40,799,201358799830083,2165,13,4,48.739933475000001,8.921398074999999,534.9941,4163583.9663000004,653593.03890000004,4771937.3805999998,0.0049999999,-0.0020000001,-0.0099999998,0.0031120069,-0.0015359746,0.010814629,1.6349208,1.2081088,3.3707478,0.23280002,9.9999997e-10,1,1,1,18,1.8499999,1.5899999,0.94,1.3399999,0.84999996,0.68000001,0.51999998,-75.762901,88.30072,18.820385,-0.48877147,-0.51453769,-0.47033656,0.52453506,19.920298,0.021922057,0.022375364,0,1,0,0,0,0,1,0,0,0,0,0,0,0,0,0,0,0,0,0,0,0,-0.82087117,-0.13553528,-0.48869437,6.3856292,1.0091581,7.3837228,-0.0043402882,0.0059979348,0.010658991,0,0,21,7,6,7,55,40,600,201358600489663,2165,12,4,48.739936463765744,8.921400611764847,534.20941100362688,4163583.1800000002,653593.09999999998,4771937.0099999998,0.017999999,-0.0089999996,0.029999999,-0.029999999,-0.0099999998,-0.0099999998,1.6683497,1.3736709,3.753623,0.32800004,5.0999997e-08,1,1,1,18,2.05,1.75,1.05,1.4699999,0.94999999,0.79999995,0.51999998
2,117,201359.055809,388542504000,201359055809259,2165,21,7,6,7,55,41,56,1,1,1,21,7,6,7,55,41,0,201358999830105,2165,13,4,48.739933467999997,8.9213981679999996,534.99549999999999,4163583.9675000003,653593.04090000002,4771937.3811999997,-0.016000001,-0.001,-0.0089999996,0.017900649,0.001797769,-0.0037861327,1.6350095,1.2080507,3.3716602,0.19680001,9.9999997e-10,1,1,1,18,1.8499999,1.5899999,0.94,1.3399999,0.84999996,0.68000001,0.51999998,-75.759537,88.298195,18.782146,-0.48897299,-0.5143525,-0.4705126,0.52437097,19.931993,0.021967506,0.022433046,0,1,0,0,0,0,1,0,0,0,0,0,0,0,0,0,0,0,0,0,0,0,-0.81132108,-0.13495213,-0.50522423,6.3891883,0.99875188,7.3712139,-0.00078156311,-0.0044082049,-0.0018501285,0,0,21,7,6,7,55,40,800,201358800489754,2165,12,4,48.739936404467656,8.921400611764847,534.20189376547933,4163583.1800000002,653593.09999999998,4771937,-0.022,-0.0020000001,0.017999999,0.0099999998,0,-0.029999999,1.6682396,1.3731558,3.7526278,0.36640003,5.0999997e-08,1,1,1,18,2.05,1.75,1.05,1.4699999,0.94999999,0.79999995,0.51999998
2,117,201359.25581,388742505000,201359255810261,2165,21,7,6,7,55,41,256,1,1,1,21,7,6,7,55,41,199,201359199830127,2165,13,4,48.739933461999996,8.9213981620000009,534.99980000000005,4163583.9706000001,653593.04340000008,4771937.3839999996,0.003,-0.0070000002,-0.022,0.013190659,-0.0050150752,0.01851636,1.6351036,1.2080181,3.3724494,0.25200003,9.9999997e-10,1,1,1,18,1.8499999,1.5899999,0.94,1.3399999,0.84999996,0.68000001,0.51999998,-75.852997,88.290733,18.655476,-0.489153,-0.51417363,-0.47063246,0.52427083,19.942993,0.021818578,0.022023905,0,1,0,0,0,0,1,0,0,0,0,0,0,0,0,0,0,0,0,0,0,0,-0.81682247,-0.1369649,-0.48856238,6.3852372,1.0013987,7.3757758,-0.0047325543,-0.0017614892,0.0027122844,0,0,21,7,6,7,55,41,0,201359000489844,2165,12,4,48.739936393985438,8.9214007460670484,534.20291648060083,4163583.1800000002,653593.10999999999,4771937,-0.0089999996,0.001,-0.015,0.02,0,0.0099999998,1.6681614,1.3726635,3.7516308,0.31680003,5.0999997e-08,1,1,1,18,2.05,1.75,1.05,1.4699999,0.94999999,0.79999995,0.51999998
2,117,201359.45581,388942505000,201359455810070,2165,21,7,6,7,55,41,456,1,1,1,21,7,6,7,55,41,399,201359399830149,2165,13,4,48.739933472000004,8.921398172,535.00280000000009,4163583.9713000003,653593.04560000007,4771937.3870000001,0.0020000001,0.003,-0.028999999,0.016942993,0.005696422,0.023118949,1.6351736,1.2079,3.3727748,0.27120003,9.9999997e-10,1,1,1,18,1.8499999,1.5899999,0.94,1.3399999,0.84999996,0.68000001,0.51999998,-75.554153,88.314255,18.914799,-0.48923048,-0.5141235,-0.4709163,0.52399278,19.955074,0.022007816,0.022466797,0,1,0,0,0,0,1,0,0,0,0,0,0,0,0,0,0,0,0,0,0,0,-0.8034907,-0.14053079,-0.48386419,6.3919568,0.99820429,7.3776293,0.0019869979,-0.0049559078,0.0045659426,0,0,21,7,6,7,55,41,200,201359200489935,2165,12,4,48.739936393985438,8.9214007460670484,534.20291648060083,4163583.1800000002,653593.10999999999,4771937,-0.026000001,-0.018999999,0.066,-0.02,-0.02,-0.07,1.6681447,1.3729572,3.7526155,0.38560003,5.0999997e-08,1,1,1,18,2.05,1.75,1.05,1.4699999,0.94999999,0.79999995,0.51999998
2,117,201359.655809,389142504000,201359655809164,2165,21,7,6,7,55,41,656,1,1,1,21,7,6,7,55,41,599,201359599830171,2165,13,4,48.739933483999998,8.9213982840000003,534.9978000000001,4163583.9666000004,653593.04830000002,4771937.3840999994,0.0099999998,0.012,-0.021,0.0043942444,0.012836755,0.02238098,1.635448,1.2079018,3.3733974,0.25440001,9.9999997e-10,1,1,1,18,1.8499999,1.5899999,0.94,1.3399999,0.84999996,0.68000001,0.51999998,-75.905083,88.282852,18.545498,-0.48945063,-0.51389384,-0.47085887,0.524064,19.967272,0.021955403,0.022212485,0,1,0,0,0,0,1,0,0,0,0,0,0,0,0,0,0,0,0,0,0,0,-0.8116107,-0.13701324,-0.48127854,6.3901691,1.010884,7.3671689,0.00019937172,0.0077238828,-0.0058947862,0,0,21,7,6,7,55,41,400,201359400490025,2165,12,4,48.739936345169575,8.921400611764847,534.1943765245378,4163583.1800000002,653593.09999999998,4771936.9900000002,0.028000001,0.001,-0.15800001,0.079999998,0.0099999998,0.14,1.6680584,1.3729166,3.7515459,0.37920004,5.0999997e-08,1,1,1,18,2.05,1.75,1.05,1.4699999,0.94999999,0.79999995,0.51999998
2,117,201359.85581,389342505000,201359855810165,2165,21,7,6,7,55,41,856,1,1,1,21,7,6,7,55,41,799,201359799830194,2165,13,4,48.739933508999997,8.9213983090000006,534.99940000000004,4163583.9650000003,653593.05130000005,4771937.3871999998,0.018999999,0.001,0.001,-0.01491654,-0.0013293284,0.011778357,1.636061,1.2081722,3.37429,0.18000001,9.9999997e-10,1,1,1,18,1.8499999,1.5899999,0.94,1.3399999,0.84999996,0.68000001,0.51999998,-75.818764,88.289474,18.615791,-0.48949501,-0.51385939,-0.47095993,0.52396566,19.979359,0.021935903,0.022312932,0,1,0,0,0,0,1,0,0,0,0,0,0,0,0,0,0,0,0,0,0,0,-0.81105471,-0.13137905,-0.48157039,6.3898807,0.99474829,7.3906951,-8.8900328e-05,-0.0084118154,0.017631451,0,0,21,7,6,7,55,41,600,201359600490116,2165,12,4,48.739936345169575,8.921400611764847,534.1943765245378,4163583.1800000002,653593.09999999998,4771936.9900000002,-0.0080000004,0.013,-0.063000001,0.039999999,0.02,0.039999999,1.6683583,1.3729746,3.7503142,0.36480004,5.0999997e-08,1,1,1,18,2.05,1.75,1.05,1.4699999,0.94999999,0.79999995,0.51999998
2,117,201360.055816,389542505000,201360055816174,2165,21,7,6,7,55,42,56,1,1,1,21,7,6,7,55,42,0,201359999830216,2165,13,4,48.739933522999998,8.921398323,535.0009,4163583.9644999998,653593.05350000004,4771937.3892000001,-0.0040000002,0.0040000002,-0.026000001,0.019289192,0.0070769708,0.01690691,1.6365598,1.2084512,3.3753541,0.25920001,9.9999997e-10,1,1,1,18,1.8499999,1.5899999,0.94,1.3399999,0.84999996,0.68000001,0.51999998,-75.797813,88.291306,18.621124,-0.48955682,-0.51380169,-0.47103986,0.52389258,19.989445,0.021833094,0.021841038,0,1,0,0,0,0,1,0,0,0,0,0,0,0,0,0,0,0,0,0,0,0,-0.82215935,-0.13147366,-0.49498615,6.3873615,1.0027552,7.3739276,-0.0026079293,-0.00040499607,0.00086398853,0,0,21,7,6,7,55,41,800,201359800490207,2165,12,4,48.739936278394751,8.9214005906822873,534.20089152082801,4163583.1899999999,653593.09999999998,4771936.9900000002,-0.0070000002,0.025,-0.07,0.049999997,0.029999999,0.049999997,1.6698074,1.3732444,3.752285,0.36480004,5.0999997e-08,1,1,1,18,2.05,1.75,1.05,1.4699999,0.94999999,0.79999995,0.51999998
2,117,201360.255815,389742504000,201360255815029,2165,21,7,6,7,55,42,256,1,1,1,21,7,6,7,55,42,199,201360199830238,2165,13,4,48.739933520999998,8.9213984209999992,535.00040000000001,4163583.9641,653593.05530000001,4771937.3887999998,-0.003,-0.0070000002,-0.0049999999,0.0065709418,-0.0060542277,0.0017801854,1.6371284,1.2087663,3.3769176,0.19680001,9.9999997e-10,1,1,1,18,1.8499999,1.5899999,0.94,1.3399999,0.84999996,0.68000001,0.51999998,-75.766708,88.291763,18.653151,-0.48955318,-0.51381195,-0.47103524,0.52389014,20.001556,0.021938847,0.022287162,0,1,0,0,0,0,1,0,0,0,0,0,0,0,0,0,0,0,0,0,0,0,-0.81576723,-0.13455898,-0.48730725,6.3878984,1.0020617,7.3768864,-0.0020714873,-0.0010984385,0.0038223471,0,0,21,7,6,7,55,42,0,201360000490297,2165,12,4,48.739936267912533,8.9214007249844869,534.20191423501819,4163583.1899999999,653593.10999999999,4771936.9900000002,-0.018999999,-0.0040000002,0.011,0.0099999998,0,-0.02,1.6701118,1.3733611,3.7512856,0.35200003,5.0999997e-08,1,1,1,18,2.05,1.75,1.05,1.4699999,0.94999999,0.79999995,0.51999998
2,117,201360.455816,389942505000,201360455816031,2165,21,7,6,7,55,42,456,1,1,1,21,7,6,7,55,42,399,201360399830260,2165,13,4,48.739933527999995,8.9213984279999998,534.99599999999998,4163583.9602999999,653593.05620000011,4771937.3859999999,0.0089999996,0.003,0.026000001,-0.024087895,-0.00074454036,-0.01360952,1.6375666,1.2089627,3.3779235,0.26160002,9.9999997e-10,1,1,1,18,1.8499999,1.5899999,0.94,1.3399999,0.84999996,0.68000001,0.51999998,-75.749779,88.2873,18.630266,-0.48975646,-0.51363134,-0.47119209,0.52373606,19.891512,0.021756751,0.021891784,0,1,0,0,0,0,1,0,0,0,0,0,0,0,0,0,0,0,0,0,0,0,-0.81511211,-0.13201298,-0.48512703,6.3884625,0.99746472,7.3719301,-0.0015072697,-0.0056955121,-0.0011335774,0,0,21,7,6,7,55,42,200,201360200490388,2165,12,4,48.739936267912533,8.9214007249844869,534.20191423501819,4163583.1899999999,653593.10999999999,4771936.9900000002,-0.023,0.017000001,-0.039999999,0.039999999,0.02,0.02,1.6705937,1.3728527,3.7502103,0.32960004,5.0999997e-08,1,1,1,18,2.05,1.75,1.05,1.4699999,0.94999999,0.79999995,0.51999998
2,117,201360.655816,390142505000,201360655816078,2165,21,7,6,7,55,42,656,1,1,1,21,7,6,7,55,42,599,201360599830282,2165,13,4,48.739933549,8.9213984489999998,535.00130000000001,4163583.9616999999,653593.05940000003,4771937.3914999999,0.0070000002,0.0020000001,-0.001,-0.0048570661,0.0012620378,0.0053680697,1.6379611,1.209133,3.3790061,0.18960002,9.9999997e-10,1,1,1,18,1.8499999,1.5899999,0.94,1.3399999,0.84999996,0.68000001,0.51999998,-75.671623,88.294975,18.682966,-0.48983607,-0.51355857,-0.47134337,0.52359688,19.903631,0.02192935,0.022094838,0,1,0,0,0,0,1,0,0,0,0,0,0,0,0,0,0,0,0,0,0,0,-0.8217876,-0.13070704,-0.48831153,6.3835392,0.98800558,7.3774467,-0.0064303712,-0.015154641,0.0043832622,0,0,21,7,6,7,55,42,400,201360400490479,2165,12,4,48.739936201137702,8.9214007039019254,534.20842923037708,4163583.2000000002,653593.10999999999,4771936.9900000002,0.0060000001,-0.029999999,-0.048,0.029999999,-0.029999999,0.039999999,1.6702455,1.372333,3.7491379,0.31200001,5.0999997e-08,1,1,1,18,2.05,1.75,1.05,1.4699999,0.94999999,0.79999995,0.51999998
2,117,201360.855815,390342504000,201360855815172,2165,21,7,6,7,55,42,856,1,1,1,21,7,6,7,55,42,799,201360799830304,2165,13,4,48.739933557000001,8.9213984569999987,534.99869999999999,4163583.9588000001,653593.06230000011,4771937.3900999995,0.0070000002,0.0080000004,-0.014,0.0026819534,0.008518978,0.015140481,1.6384252,1.209367,3.380064,0.25680003,9.9999997e-10,1,1,1,18,1.8499999,1.5899999,0.94,1.3399999,0.84999996,0.68000001,0.51999998,-75.630455,88.296349,18.72234,-0.48984134,-0.51356113,-0.4713544,0.52357954,19.914198,0.021837657,0.022167282,0,1,0,0,0,0,1,0,0,0,0,0,0,0,0,0,0,0,0,0,0,0,-0.80951542,-0.13821922,-0.48066238,6.3912835,1.004925,7.3766456,0.0013137643,0.0017648138,0.0035817134,0,0,21,7,6,7,55,42,600,201360600490569,2165,12,4,48.739936270918015,8.9214005695997294,534.21492375526577,4163583.2000000002,653593.09999999998,4771937,-0.035999998,-0.039999999,0.075000003,-0.02,-0.039999999,-0.079999998,1.6695139,1.3717481,3.7478061,0.37600002,5.0999997e-08,1,1,1,18,2.05,1.75,1.05,1.4699999,0.94999999,0.79999995,0.51999998
2,117,201361.055823,390542505000,201361055822611,2165,21,7,6,7,55,43,56,1,1,1,21,7,6,7,55,43,0,201360999830326,2165,13,4,48.739933582999996,8.921398482999999,534.99850000000004,4163583.9558999999,653593.06610000005,4771937.3918999992,0.018999999,0.0040000002,-0.0060000001,-0.010821281,0.0023502773,0.017040424,1.6388292,1.209552,3.380981,0.20160003,9.9999997e-10,1,1,1,18,1.8499999,1.5899999,0.94,1.3399999,0.84999996,0.68000001,0.51999998,-75.839912,88.273979,18.490337,-0.49004394,-0.513363,-0.47135362,0.52358496,19.926304,0.021800915,0.021992493,0,1,0,0,0,0,1,0,0,0,0,0,0,0,0,0,0,0,0,0,0,0,-0.82755196,-0.12418475,-0.49091363,6.3869944,1.010263,7.3815393,-0.0029754697,0.0071028108,0.0084758252,0,0,21,7,6,7,55,42,800,201360800490660,2165,12,4,48.739936270918015,8.9214005695997294,534.21492375526577,4163583.2000000002,653593.09999999998,4771937,-0.041999999,-0.0099999998,0.048,0,-0.0099999998,-0.059999999,1.6701689,1.3713017,3.7468808,0.37760004,5.0999997e-08,1,1,1,18,2.05,1.75,1.05,1.4699999,0.94999999,0.79999995,0.51999998
2,117,201361.255823,390742505000,201361255822659,2165,21,7,6,7,55,43,256,1,1,1,21,7,6,7,55,43,199,201361199830348,2165,13,4,48.739933579000002,8.9213985789999999,535.00220000000002,4163583.9581999998,653593.06940000004,4771937.3943999996,-0.026000001,-0.0040000002,-0.0060000001,0.023837684,-0.00030698325,-0.012636084,1.6392999,1.2097647,3.3819101,0.18480003,9.9999997e-10,1,1,1,18,1.8499999,1.5899999,0.94,1.3399999,0.84999996,0.68000001,0.51999998,-75.565872,88.29911,18.75211,-0.48998749,-0.51343119,-0.47152433,0.52341706,19.937675,0.021769783,0.021844862,0,1,0,0,0,0,1,0,0,0,0,0,0,0,0,0,0,0,0,0,0,0,-0.81779569,-0.13485038,-0.48910779,6.388814,0.99010098,7.3748231,-0.0011558376,-0.013059264,0.0017597103,0,0,21,7,6,7,55,43,0,201361000490751,2165,12,4,48.739936270918015,8.9214005695997294,534.21492375526577,4163583.2000000002,653593.09999999998,4771937,-0.0089999996,-0.021,0.02,0,-0.02,-0.02,1.6697443,1.3708678,3.7457864,0.33920002,5.0999997e-08,1,1,1,18,2.05,1.75,1.05,1.4699999,0.94999999,0.79999995,0.51999998
2,117,201361.455822,390942505000,201361455822468,2165,21,7,6,7,55,43,456,1,1,1,21,7,6,7,55,43,399,201361399830370,2165,13,4,48.739933545999996,8.9213986459999983,535.00030000000004,4163583.9594000001,653593.07130000007,4771937.3904999997,-0.0099999998,-0.0040000002,-0.025,0.024334103,-0.00022905623,0.012198318,1.6395167,1.2098466,3.3827033,0.25920001,9.9999997e-10,1,1,1,18,1.8499999,1.5899999,0.94,1.3399999,0.84999996,0.68000001,0.51999998,-75.540413,88.300377,18.75312,-0.49009275,-0.51333451,-0.47163999,0.52330923,19.948166,0.021675346,0.022101516,0,1,0,0,0,0,1,0,0,0,0,0,0,0,0,0,0,0,0,0,0,0,-0.81364757,-0.13658205,-0.48489767,6.3943195,1.0029052,7.3784084,0.0043495917,-0.00025499967,0.0053447401,0,0,21,7,6,7,55,43,200,201361200490842,2165,12,4,48.739936237055588,8.9214004774626474,534.17831933312118,4163583.1800000002,653593.08999999997,4771936.9699999997,0.050000001,0.082000002,-0.31099999,0.14999999,0.11,0.26999998,1.6714249,1.3717084,3.748086,0.38240001,5.0999997e-08,1,1,1,18,2.05,1.75,1.05,1.4699999,0.94999999,0.79999995,0.51999998
2,117,201361.655823,391142505000,201361655822516,2165,21,7,6,7,55,43,656,1,1,1,21,7,6,7,55,43,599,201361599830393,2165,13,4,48.739933531999995,8.9213986319999989,534.99699999999996,4163583.9583999999,653593.07070000004,4771937.3870000001,0.0040000002,-0.021,-0.014,0.0094071412,-0.019780451,0.013162047,1.6396247,1.2099659,3.3826768,0.17760001,9.9999997e-10,1,1,1,18,1.8499999,1.5899999,0.94,1.3399999,0.84999996,0.68000001,0.51999998,-75.763008,88.279663,18.517384,-0.49024302,-0.5131799,-0.47160587,0.52335083,19.960287,0.02173005,0.02187801,0,1,0,0,0,0,1,0,0,0,0,0,0,0,0,0,0,0,0,0,0,0,-0.81765711,-0.14131182,-0.48760223,6.3919258,1.0047486,7.3715434,0.0019559753,0.0015883899,-0.0015205479,0,0,21,7,6,7,55,43,400,201361400490932,2165,12,4,48.739936152321839,8.9214005695997294,534.19988927617669,4163583.2000000002,653593.09999999998,4771936.9800000004,0.043000001,0.052999999,-0.38999999,0.20999999,0.089999996,0.31999999,1.6725023,1.3727145,3.7498388,0.38880002,5.0999997e-08,1,1,1,18,2.05,1.75,1.05,1.4699999,0.94999999,0.79999995,0.51999998
2,117,201361.855823,391342505000,201361855822563,2165,21,7,6,7,55,43,856,1,1,1,21,7,6,7,55,43,799,201361799830415,2165,13,4,48.739933542999999,8.9213986429999999,534.99330000000009,4163583.9551999997,653593.06990000012,4771937.3850999996,0.0080000004,0,0.032000002,-0.026789026,-0.0042052981,-0.018779343,1.6395576,1.2100424,3.3825564,0.26400003,9.9999997e-10,1,1,1,18,1.8499999,1.5899999,0.94,1.3399999,0.84999996,0.68000001,0.51999998,-75.478294,88.296585,18.764812,-0.49034464,-0.51311731,-0.47184348,0.52310282,19.970881,0.021720009,0.022102427,0,1,0,0,0,0,1,0,0,0,0,0,0,0,0,0,0,0,0,0,0,0,-0.80783212,-0.13814583,-0.48215118,6.3859797,1.0050838,7.3732395,-0.0039903265,0.0019236034,0.00017595268,0,0,21,7,6,7,55,43,600,201361600491023,2165,12,4,48.739936196666449,8.92140052743461,534.23547098506242,4163583.2200000002,653593.09999999998,4771937.0099999998,-0.023,-0.02,0.13600001,-0.07,-0.029999999,-0.12,1.6745585,1.3753378,3.7548223,0.39840004,5.0999997e-08,1,1,1,18,2.05,1.75,1.05,1.4699999,0.94999999,0.79999995,0.51999998
2,117,201362.055829,391542505000,201362055828810,2165,21,7,6,7,55,44,56,1,1,1,21,7,6,7,55,44,0,201361999830437,2165,13,4,48.739933579000002,8.9213985789999999,534.995,4163583.9530000002,653593.0719000001,4771937.3889999995,0.027000001,0.0020000001,-0.0060000001,-0.01645216,-0.00055814139,0.022316249,1.6394937,1.210127,3.3824909,0.18960002,9.9999997e-10,1,1,1,18,1.8499999,1.5899999,0.94,1.3399999,0.84999996,0.68000001,0.51999998,-75.428123,88.302567,18.792471,-0.49041763,-0.51304692,-0.47197533,0.5229845,19.983093,0.021739805,0.021948269,0,1,0,0,0,0,1,0,0,0,0,0,0,0,0,0,0,0,0,0,0,0,-0.81670117,-0.13456395,-0.49657387,6.3827295,1.0116361,7.3739243,-0.0072401715,0.0084758811,0.00086033763,0,0,21,7,6,7,55,43,800,201361800491114,2165,12,4,48.739936238005598,8.9214006406542499,534.25804317463189,4163583.23,653593.10999999999,4771937.0300000003,0.0070000002,-0.021,0.028000001,-0.02,-0.02,-0.02,1.6745832,1.3766178,3.7563004,0.35520002,5.0999997e-08,1,1,1,18,2.05,1.75,1.05,1.4699999,0.94999999,0.79999995,0.51999998
2,117,201362.255829,391742505000,201362255828857,2165,21,7,6,7,55,44,256,1,1,1,21,7,6,7,55,44,199,201362199830459,2165,13,4,48.739933627999996,8.9213986280000004,534.99360000000001,4163583.9475000002,653593.07390000008,4771937.3914999999,0.022,0.0049999999,-0.016000001,-0.0066892533,0.0040111626,0.026536098,1.6395596,1.2102287,3.3829226,0.22800003,9.9999997e-10,1,1,1,18,1.8499999,1.5899999,0.94,1.3399999,0.84999996,0.68000001,0.51999998,-75.511749,88.30233,18.708376,-0.49041313,-0.51303118,-0.47198355,0.52299672,19.994057,0.021767603,0.021879189,0,1,0,0,0,0,1,0,0,0,0,0,0,0,0,0,0,0,0,0,0,0,-0.81579936,-0.13278523,-0.4868544,6.3899803,0.99328172,7.3759398,1.0556949e-05,-0.0098784724,0.0028762175,0,0,21,7,6,7,55,44,0,201362000491205,2165,12,4,48.739936196666449,8.92140052743461,534.23547098506242,4163583.2200000002,653593.09999999998,4771937.0099999998,-0.083999999,0.011,0.126,-0.02,0.0099999998,-0.14999999,1.6741903,1.3774005,3.7581801,0.39200002,5.0999997e-08,1,1,1,18,2.05,1.75,1.05,1.4699999,0.94999999,0.79999995,0.51999998
2,117,201362.455829,391942505000,201362455828667,2165,21,7,6,7,55,44,456,1,1,1,21,7,6,7,55,44,399,201362399830481,2165,13,4,48.739933662999995,8.9213986629999997,534.99990000000003,4163583.9484000001,653593.07669999998,4771937.3988000005,0.013,0.001,-0.039000001,0.015599222,0.0034609868,0.037890445,1.6397803,1.2103502,3.3837905,0.27600002,9.9999997e-10,1,1,1,18,1.8499999,1.5899999,0.94,1.3399999,0.84999996,0.68000001,0.51999998,-75.599251,88.29911,18.630455,-0.49038061,-0.51304799,-0.4719291,0.52305984,20.006046,0.021619311,0.021689117,0,1,0,0,0,0,1,0,0,0,0,0,0,0,0,0,0,0,0,0,0,0,-0.81747949,-0.13616067,-0.49517626,6.3951678,1.0078453,7.3832908,0.0051981695,0.0046851244,0.010227166,0,0,21,7,6,7,55,44,200,201362200491295,2165,12,4,48.739936119409414,8.9214006406542499,534.24300869554281,4163583.23,653593.10999999999,4771937.0099999998,-0.015,-0.021,0.033,-0.0099999998,-0.02,-0.029999999,1.6735287,1.3778983,3.7588353,0.38880002,5.0999997e-08,1,1,1,18,2.05,1.75,1.05,1.4699999,0.94999999,0.79999995,0.51999998
2,117,201362.655829,392142505000,201362655828714,2165,21,7,6,7,55,44,656,1,1,1,21,7,6,7,55,44,599,201362599830503,2165,13,4,48.739933667000003,8.9213986670000001,535.00360000000001,4163583.9500000002,653593.07990000001,4771937.4018999999,-0.016000001,0.0089999996,-0.021,0.024167852,0.012904045,0.0052345535,1.6399434,1.2105076,3.384542,0.22320001,9.9999997e-10,1,1,1,18,1.8499999,1.5899999,0.94,1.3399999,0.84999996,0.68000001,0.51999998,-75.750862,88.283424,18.481821,-0.49043745,-0.51298916,-0.47184351,0.52314144,19.89753,0.021699656,0.022037081,0,1,0,0,0,0,1,0,0,0,0,0,0,0,0,0,0,0,0,0,0,0,-0.81984174,-0.1367446,-0.49606299,6.3898039,1.0127593,7.3723583,-0.00016597619,0.0095991986,-0.0007054017,0,0,21,7,6,7,55,44,400,201362400491386,2165,12,4,48.739936122414896,8.9214004852694924,534.25601821672171,4163583.2400000002,653593.09999999998,4771937.0200000005,0.0089999996,-0.024,-0.043000001,0.029999999,-0.02,0.039999999,1.6729152,1.3783998,3.7596188,0.33760002,5.0999997e-08,1,1,1,18,2.05,1.75,1.05,1.4699999,0.94999999,0.79999995,0.51999998
2,117,201362.855829,392342505000,201362855828762,2165,21,7,6,7,55,44,856,1,1,1,21,7,6,7,55,44,799,201362799830525,2165,13,4,48.739933616999998,8.9213987170000006,535.00580000000002,4163583.9555000002,653593.08120000002,4771937.3999000005,-0.027000001,-0.012,-0.02,0.034941941,-0.006661824,-0.0027714288,1.6377149,1.2095881,3.3821335,0.19920002,9.9999997e-10,1,1,1,18,1.8499999,1.5899999,0.94,1.3399999,0.84999996,0.68000001,0.51999998,-75.702614,88.287186,18.528612,-0.49042833,-0.51300198,-0.47186655,0.52311671,19.909454,0.021661529,0.021800822,0,1,0,0,0,0,1,0,0,0,0,0,0,0,0,0,0,0,0,0,0,0,-0.82929254,-0.13535263,-0.49568793,6.3877745,1.0138489,7.3737631,-0.0021952156,0.01068868,0.00069954293,0,0,21,7,6,7,55,44,600,201362600491477,2165,12,4,48.739936055640079,8.9214004641869327,534.26253321021795,4163583.25,653593.09999999998,4771937.0200000005,-0.061999999,0.0049999999,-0.017000001,0.059999999,0.0099999998,-0.029999999,1.6725385,1.3789816,3.7606754,0.28960001,5.0999997e-08,1,1,1,18,2.05,1.75,1.05,1.4699999,0.94999999,0.79999995,0.52999997
2,117,201363.055835,392542505000,201363055835009,2165,21,7,6,7,55,45,56,1,1,1,21,7,6,7,55,45,0,201362999830547,2165,13,4,48.739933597000004,8.921398696999999,535.02160000000003,4163583.9674000004,653593.08289999992,4771937.4103000006,0.0089999996,0.001,-0.07,0.038766228,0.0070977067,0.058555972,1.635067,1.2085037,3.3791907,0.27120003,9.9999997e-10,1,1,1,18,1.8499999,1.5899999,0.94,1.3399999,0.84999996,0.68000001,0.51999998,-75.591225,88.301643,18.647066,-0.49032894,-0.51309395,-0.47190312,0.52308673,19.920858,0.021704698,0.021880064,0,1,0,0,0,0,1,0,0,0,0,0,0,0,0,0,0,0,0,0,0,0,-0.82246524,-0.1278107,-0.4908874,6.390244,0.99291646,7.3694749,0.00027419534,-0.010243772,-0.0035887312,0,0,21,7,6,7,55,44,800,201362800491568,2165,12,4,48.739935988865255,8.921400443104373,534.26904820557684,4163583.2600000002,653593.09999999998,4771937.0200000005,-0.013,-0.0070000002,-0.0080000004,0.02,0,0,1.6721821,1.3794935,3.7617152,0.26720002,5.0999997e-08,1,1,1,18,2.05,1.75,1.05,1.4699999,0.94999999,0.79999995,0.52999997
2,117,201363.255835,392742505000,201363255835056,2165,21,7,6,7,55,45,256,1,1,1,21,7,6,7,55,45,199,201363199830569,2165,13,4,48.739933586999996,8.9213987869999993,535.02449999999999,4163583.9698000001,653593.08600000001,4771937.4117000001,-0.0099999998,0.016000001,0.0060000001,0.0010360298,0.016358573,-0.011105123,1.6329163,1.2077142,3.3767903,0.14640002,9.9999997e-10,1,1,1,18,1.8499999,1.5899999,0.94,1.3399999,0.84999996,0.68000001,0.51999998,-75.696701,88.285927,18.549473,-0.49036732,-0.51306379,-0.47179216,0.52318019,19.933117,0.021666704,0.021868043,0,1,0,0,0,0,1,0,0,0,0,0,0,0,0,0,0,0,0,0,0,0,-0.82232535,-0.1318,-0.49605066,6.3884921,1.0149336,7.3716846,-0.0014775635,0.011773266,-0.0013792308,0,0,21,7,6,7,55,45,0,201363000491658,2165,12,4,48.739935999347466,8.9214003088021752,534.2680254932493,4163583.2600000002,653593.08999999997,4771937.0200000005,0.02,-0.025,0.016000001,-0.02,-0.029999999,0,1.6718245,1.3799889,3.7627821,0.28960001,5.0999997e-08,1,1,1,18,2.05,1.75,1.05,1.4699999,0.94999999,0.79999995,0.52999997
2,117,201363.455835,392942505000,201363455834866,2165,21,7,6,7,55,45,456,1,1,1,21,7,6,7,55,45,399,201363399830591,2165,13,4,48.739933562999994,8.9213987629999991,535.02769999999998,4163583.9735000003,653593.08879999991,4771937.4123999998,0,0.003,-0.039000001,0.024943247,0.0069522895,0.029317232,1.6314086,1.2073231,3.3743854,0.26400003,9.9999997e-10,1,1,1,18,1.8499999,1.5899999,0.94,1.3399999,0.84999996,0.68000001,0.51999998,-75.7388,88.2808,18.505655,-0.4903996,-0.51303369,-0.47177476,0.52319527,19.942188,0.021486474,0.021529643,0,1,0,0,0,0,1,0,0,0,0,0,0,0,0,0,0,0,0,0,0,0,-0.82127345,-0.13489828,-0.49379563,6.378829,1.0088124,7.3811722,-0.011140729,0.0056522549,0.0081087127,0,0,21,7,6,7,55,45,200,201363200491749,2165,12,4,48.739935991870745,8.9214002877196172,534.28205772675574,4163583.27,653593.08999999997,4771937.0300000003,-0.02,-0.025,0.037,-0.0099999998,-0.029999999,-0.039999999,1.6715474,1.3805799,3.7645516,0.37760004,5.0999997e-08,1,1,1,18,2.05,1.75,1.05,1.4699999,0.94999999,0.79999995,0.52999997
2,117,201363.655835,393142505000,201363655834913,2165,21,7,6,7,55,45,656,1,1,1,21,7,6,7,55,45,599,201363599830614,2165,13,4,48.739933574999995,8.9213987750000001,535.03140000000008,4163583.9747000001,653593.09029999992,4771937.4160000002,0.035,0.0070000002,0.0080000004,-0.032289587,0.0020169555,0.017067937,1.6296549,1.2066219,3.3723822,0.18240002,9.9999997e-10,1,1,1,18,1.8499999,1.5899999,0.94,1.3399999,0.84999996,0.68000001,0.51999998,-75.661308,88.284676,18.563749,-0.49047279,-0.51297486,-0.47187728,0.52309191,19.954767,0.021500323,0.021577463,0,1,0,0,0,0,1,0,0,0,0,0,0,0,0,0,0,0,0,0,0,0,-0.82501382,-0.1330594,-0.49012515,6.3898988,1.0165852,7.3697095,-7.106585e-05,0.01342495,-0.0033544805,0,0,21,7,6,7,55,45,400,201363400491840,2165,12,4,48.739936051168819,8.9214002877196172,534.28957496583462,4163583.27,653593.08999999997,4771937.04,-0.015,-0.014,0.083999999,-0.039999999,-0.02,-0.07,1.6713092,1.3811604,3.7662878,0.39360002,5.0999997e-08,1,1,1,18,2.05,1.75,1.05,1.4699999,0.94999999,0.79999995,0.52999997
2,117,201363.855835,393342505000,201363855834961,2165,21,7,6,7,55,45,856,1,1,1,21,7,6,7,55,45,799,201363799830636,2165,13,4,48.739933588,8.9213987879999994,535.02499999999998,4163583.9692000002,653593.09129999997,4771937.4122000001,-0.0099999998,0.0049999999,0.0070000002,0.0020904019,0.0053893779,-0.011856847,1.6306779,1.2075561,3.3733385,0.20160003,9.9999997e-10,1,1,1,18,1.8499999,1.5899999,0.94,1.3399999,0.84999996,0.68000001,0.51999998,-75.402443,88.304184,18.79314,-0.49052304,-0.51294887,-0.47209641,0.52287251,19.965937,0.021455752,0.021688865,0,1,0,0,0,0,1,0,0,0,0,0,0,0,0,0,0,0,0,0,0,0,-0.81449085,-0.13607146,-0.48776814,6.3911843,0.97889853,7.3700342,0.0012144293,-0.024261663,-0.0030293181,0,0,21,7,6,7,55,45,600,201363600491930,2165,12,4,48.739936002352948,8.9214001534174212,534.28103501256555,4163583.27,653593.07999999996,4771937.0300000003,0.0040000002,-0.021,0.050999999,-0.029999999,-0.029999999,-0.039999999,1.6711249,1.3818115,3.7683787,0.37600002,5.0999997e-08,1,1,1,18,2.05,1.75,1.05,1.4699999,0.94999999,0.79999995,0.52999997
2,117,201364.055841,393542505000,201364055840969,2165,21,7,6,7,55,46,56,1,1,1,21,7,6,7,55,46,0,201363999830658,2165,13,4,48.739933552999993,8.9213988529999995,535.0249,4163583.9717000001,653593.09309999994,4771937.4095999999,-0.017999999,0.0049999999,-0.017000001,0.023667429,0.0087765055,0.00090870447,1.6323159,1.2088926,3.3750401,0.21840002,9.9999997e-10,1,1,1,18,1.8499999,1.5899999,0.94,1.3399999,0.84999996,0.68000001,0.51999998,-75.31469,88.314133,18.884123,-0.49046266,-0.51300645,-0.4721292,0.52284306,19.977242,0.021425424,0.021702772,0,1,0,0,0,0,1,0,0,0,0,0,0,0,0,0,0,0,0,0,0,0,-0.81497639,-0.12842929,-0.48258436,6.399034,0.9927333,7.3746915,0.0090642013,-0.010426926,0.0016276727,0,0,21,7,6,7,55,45,800,201363800492021,2165,12,4,48.739936061651029,8.9214001534174212,534.28855225164443,4163583.27,653593.07999999996,4771937.04,-0.018999999,-0.016000001,0.066,-0.029999999,-0.02,-0.059999999,1.6717379,1.3831007,3.7729325,0.39360002,5.0999997e-08,1,1,1,18,2.05,1.75,1.05,1.4699999,0.94999999,0.79999995,0.52999997
2,117,201364.255841,393742505000,201364255841017,2165,21,7,6,7,55,46,256,1,1,1,21,7,6,7,55,46,199,201364199830680,2165,13,4,48.739933524999998,8.9213988249999989,535.02519999999993,4163583.9744000002,653593.0932,4771937.4077000003,-0.0099999998,-0.012,-0.033,0.030786736,-0.0073141018,0.01821211,1.6342123,1.2103605,3.3770835,0.25920001,9.9999997e-10,1,1,1,18,1.8499999,1.5899999,0.94,1.3399999,0.84999996,0.68000001,0.51999998,-75.575348,88.293137,18.630884,-0.49052006,-0.51293325,-0.47200128,0.52297652,19.98881,0.021514418,0.021762351,0,1,0,0,0,0,1,0,0,0,0,0,0,0,0,0,0,0,0,0,0,0,-0.81201321,-0.13725384,-0.48863471,6.3927617,0.99774069,7.3606501,0.0027917274,-0.0054195337,-0.012413701,0,0,21,7,6,7,55,46,0,201364000492112,2165,12,4,48.739936061651029,8.9214001534174212,534.28855225164443,4163583.27,653593.07999999996,4771937.04,0.013,-0.014,0.037,-0.029999999,-0.02,-0.02,1.6715689,1.3835541,3.7740278,0.35520002,5.0999997e-08,1,1,1,18,2.05,1.75,1.05,1.4699999,0.94999999,0.79999995,0.52999997
2,117,201364.455841,393942505000,201364455840826,2165,21,7,6,7,55,46,456,1,1,1,21,7,6,7,55,46,399,201364399830702,2165,13,4,48.739933514999997,8.9213988149999999,535.02409999999998,4163583.9746000003,653593.09249999991,4771937.4062000001,0,-0.0040000002,-0.001,0.0012718168,-0.0038493369,0.00075172394,1.6357918,1.2117079,3.3794007,0.16320002,9.9999997e-10,1,1,1,18,1.8499999,1.5899999,0.94,1.3399999,0.84999996,0.68000001,0.51999998,-75.572067,88.291763,18.61865,-0.49059725,-0.51286304,-0.47206491,0.52291554,20.001097,0.021533472,0.021769162,0,1,0,0,0,0,1,0,0,0,0,0,0,0,0,0,0,0,0,0,0,0,-0.80887842,-0.13873932,-0.48416144,6.3900485,1.0220677,7.3724833,7.8785117e-05,0.018907426,-0.00058033341,0,0,21,7,6,7,55,46,200,201364200492202,2165,12,4,48.739936061651029,8.9214001534174212,534.28855225164443,4163583.27,653593.07999999996,4771937.04,-0.0089999996,-0.012,0.090000004,-0.049999997,-0.02,-0.07,1.6711473,1.3830386,3.7725148,0.38560003,5.0999997e-08,1,1,1,18,2.05,1.75,1.05,1.4699999,0.94999999,0.79999995,0.52999997
2,117,201364.65584,394142504000,201364655839920,2165,21,7,6,7,55,46,656,1,1,1,21,7,6,7,55,46,599,201364599830724,2165,13,4,48.739933500999996,8.9213988010000005,535.01969999999994,4163583.9731000001,653593.09089999995,4771937.4018000001,-0.0080000004,-0.016000001,-0.013,0.0168918,-0.013544291,0.004496587,1.6372352,1.2129962,3.3811293,0.20640002,9.9999997e-10,1,1,1,18,1.8499999,1.5899999,0.94,1.3399999,0.84999996,0.68000001,0.51999998,-75.502708,88.287987,18.664646,-0.49072617,-0.5127641,-0.47214571,0.52281851,19.890499,0.021419905,0.021889478,0,1,0,0,0,0,1,0,0,0,0,0,0,0,0,0,0,0,0,0,0,0,-0.81211823,-0.13969441,-0.48958182,6.3896861,1.0062113,7.3747849,-0.0002837542,0.0030511213,0.0017211079,0,0,21,7,6,7,55,46,400,201364400492293,2165,12,4,48.739936079609976,8.9214000401977813,534.27349730301648,4163583.2600000002,653593.07000000007,4771937.0300000003,0.021,-0.0040000002,0.0070000002,-0.02,-0.0099999998,0.0099999998,1.6707194,1.3821409,3.7709992,0.28480002,5.0999997e-08,1,1,1,18,2.05,1.75,1.05,1.4699999,0.94999999,0.79999995,0.52999997
2,117,201364.855841,394342505000,201364855840921,2165,21,7,6,7,55,46,856,1,1,1,21,7,6,7,55,46,799,201364799830747,2165,13,4,48.739933488999995,8.9213987889999995,535.01869999999997,4163583.9735000003,653593.09029999992,4771937.4002,0.017999999,0.012,-0.027000001,0.0023622084,0.012517769,0.032167148,1.6364111,1.2132242,3.3793845,0.25440001,9.9999997e-10,1,1,1,18,1.8499999,1.5899999,0.94,1.3399999,0.84999996,0.68000001,0.51999998,-75.500732,88.285362,18.649366,-0.49082017,-0.51268113,-0.47220817,0.52275538,19.902046,0.021430483,0.021671897,0,1,0,0,0,0,1,0,0,0,0,0,0,0,0,0,0,0,0,0,0,0,-0.8137337,-0.14066477,-0.49107769,6.3954501,1.0185156,7.368257,0.0054804268,0.015355318,-0.0048064445,0,0,21,7,6,7,55,46,600,201364600492384,2165,12,4,48.739936012835152,8.9214000191152252,534.28001229837537,4163583.27,653593.07000000007,4771937.0300000003,-0.043000001,-0.023,0.046999998,0.0099999998,-0.02,-0.059999999,1.67033,1.3812573,3.7693501,0.37280002,5.0999997e-08,1,1,1,18,2.05,1.75,1.05,1.4699999,0.94999999,0.79999995,0.52999997
2,117,201365.055847,394542505000,201365055847168,2165,21,7,6,7,55,47,56,1,1,1,21,7,6,7,55,47,0,201364999830769,2165,13,4,48.739933473000001,8.9213987729999999,535.01730000000009,4163583.9736000001,653593.09219999996,4771937.398,-0.0080000004,0.013,-0.013,0.012394501,0.015104869,0.004496587,1.6349201,1.2130108,3.3773053,0.20400001,9.9999997e-10,1,1,1,18,1.8499999,1.5899999,0.94,1.3399999,0.84999996,0.68000001,0.51999998,-75.384521,88.297043,18.778271,-0.49070936,-0.5127902,-0.47220522,0.52275497,19.914406,0.021577591,0.0218252,0,1,0,0,0,0,1,0,0,0,0,0,0,0,0,0,0,0,0,0,0,0,-0.82893384,-0.11834569,-0.48547438,6.3680897,0.99645913,7.3784947,-0.021879911,-0.0067010797,0.0054308483,0,0,21,7,6,7,55,46,800,201364800492475,2165,12,4,48.739936012835152,8.9214000191152252,534.28001229837537,4163583.27,653593.07000000007,4771937.0300000003,-0.014,0.012,-0.039000001,0.029999999,0.02,0.02,1.6699789,1.3804255,3.7678852,0.34560001,5.0999997e-08,1,1,1,18,2.05,1.75,1.05,1.4699999,0.94999999,0.79999995,0.52999997
